[{"name":"Digg","category_code":"news","number_of_employees":60.0,"founded_year":2004,"description":null,"zip_code":"94107","city":"San Francisco","state_code":"CA","country_code":"USA","location":{"type":"Point","coordinates":[-122.394523,37.764726]}},{"name":"Geni","category_code":"web","number_of_employees":18.0,"founded_year":2006,"description":"Headquarters","zip_code":"90069","city":"West Hollywood","state_code":"CA","country_code":"USA","location":{"type":"Point","coordinates":[-118.393064,34.090368]}},{"name":"StumbleUpon","category_code":"web","number_of_employees":null,"founded_year":2002,"description":"","zip_code":"","city":"San Francisco","state_code":"CA","country_code":"USA","location":{"type":"Point","coordinates":[-122.419204,37.775196]}},{"name":"Gizmoz","category_code":"web","number_of_employees":null,"founded_year":2003,"description":null,"zip_code":null,"city":"Menlo Park","state_code":"CA","country_code":"USA","location":{"type":"Point","coordinates":[-122.169472,37.48413]}},{"name":"Facebook","category_code":"social","number_of_employees":5299.0,"founded_year":2004,"description":"Headquarters","zip_code":"94025","city":"Menlo Park","state_code":"CA","country_code":"USA","location":{"type":"Point","coordinates":[-122.151801,37.41605]}},{"name":"Facebook","category_code":"social","number_of_employees":5299.0,"founded_year":2004,"description":"Europe HQ","zip_code":"","city":"Dublin","state_code":null,"country_code":"IRL","location":{"type":"Point","coordinates":[-6.267494,53.344104]}},{"name":"Facebook","category_code":"social","number_of_employees":5299.0,"founded_year":2004,"description":"New York","zip_code":"10017","city":"New York","state_code":"NY","country_code":"USA","location":{"type":"Point","coordinates":[-73.9792469,40.7557162]}},{"name":"Scribd","category_code":"news","number_of_employees":50.0,"founded_year":2007,"description":"HQ","zip_code":"94107","city":"San Francisco","state_code":"CA","country_code":"USA","location":{"type":"Point","coordinates":[-122.404052,37.789634]}},{"name":"Helio","category_code":"mobile","number_of_employees":null,"founded_year":2005,"description":null,"zip_code":"90024","city":"Los Angeles","state_code":"CA","country_code":"USA","location":{"type":"Point","coordinates":[-118.446596,34.057498]}},{"name":"MeetMoi","category_code":"social","number_of_employees":15.0,"founded_year":2007,"description":null,"zip_code":"","city":"New York City","state_code":"NY","country_code":"USA","location":{"type":"Point","coordinates":[-73.985506,40.757929]}},{"name":"Slacker","category_code":"music","number_of_employees":null,"founded_year":2006,"description":"","zip_code":"92127","city":"San Diego","state_code":"CA","country_code":"USA","location":{"type":"Point","coordinates":[-117.081406,33.022176]}},{"name":"Joost","category_code":"games_video","number_of_employees":0.0,"founded_year":2006,"description":"","zip_code":"10011-6903","city":"New York","state_code":"NY","country_code":"USA","location":{"type":"Point","coordinates":[-74.0094471,40.7464969]}},{"name":"Twitter","category_code":"social","number_of_employees":1300.0,"founded_year":2006,"description":"","zip_code":"94103","city":"San Francisco","state_code":"CA","country_code":"USA","location":{"type":"Point","coordinates":[-122.4169244,37.7768052]}},{"name":"Plaxo","category_code":"web","number_of_employees":50.0,"founded_year":2002,"description":"HQ","zip_code":"94089","city":"Sunnyvale","state_code":"CA","country_code":"USA","location":{"type":"Point","coordinates":[-122.055197,37.387845]}},{"name":"Powerset","category_code":"search","number_of_employees":60.0,"founded_year":2006,"description":null,"zip_code":"94107","city":"San Francisco","state_code":"CA","country_code":"USA","location":{"type":"Point","coordinates":[-122.395289,37.778613]}},{"name":"Technorati","category_code":"advertising","number_of_employees":35.0,"founded_year":2002,"description":"","zip_code":"94108","city":"San Francisco","state_code":"CA","country_code":"USA","location":{"type":"Point","coordinates":[-122.393041,37.779558]}},{"name":"AddThis","category_code":"advertising","number_of_employees":120.0,"founded_year":2004,"description":"HQ - Virginia","zip_code":"22182","city":"Vienna","state_code":"VA","country_code":"USA","location":{"type":"Point","coordinates":[-77.245195,38.926172]}},{"name":"AddThis","category_code":"advertising","number_of_employees":120.0,"founded_year":2004,"description":"New York Office","zip_code":"10012","city":"New York","state_code":"NY","country_code":"USA","location":{"type":"Point","coordinates":[-73.996876,40.724604]}},{"name":"AddThis","category_code":"advertising","number_of_employees":120.0,"founded_year":2004,"description":"Los Angeles Office","zip_code":"90232","city":"Culver City","state_code":"CA","country_code":"USA","location":{"type":"Point","coordinates":[-118.380954,34.0263021]}},{"name":"AddThis","category_code":"advertising","number_of_employees":120.0,"founded_year":2004,"description":"Michigan Office","zip_code":"48084","city":"Troy","state_code":"MI","country_code":"USA","location":{"type":"Point","coordinates":[-83.167884,42.557958]}},{"name":"Mahalo","category_code":"web","number_of_employees":40.0,"founded_year":2007,"description":"","zip_code":"90232","city":"Culver City","state_code":"CA","country_code":"USA","location":{"type":"Point","coordinates":[-118.487267,34.017606]}},{"name":"OpenX","category_code":"advertising","number_of_employees":305.0,"founded_year":2008,"description":"Headquarters","zip_code":"91101","city":"Pasadena","state_code":"CA","country_code":"USA","location":{"type":"Point","coordinates":[-118.1327468,34.1494713]}},{"name":"Kyte","category_code":"games_video","number_of_employees":40.0,"founded_year":2006,"description":null,"zip_code":"94102","city":"San Francisco","state_code":"CA","country_code":"USA","location":{"type":"Point","coordinates":[-122.409173,37.788482]}},{"name":"Veoh","category_code":"games_video","number_of_employees":null,"founded_year":2004,"description":"","zip_code":"92121","city":"San Diego","state_code":"CA","country_code":"USA","location":{"type":"Point","coordinates":[-117.20834,32.902266]}},{"name":"Jingle Networks","category_code":"mobile","number_of_employees":35.0,"founded_year":2005,"description":"","zip_code":"10016","city":"New York","state_code":"NY","country_code":"USA","location":{"type":"Point","coordinates":[-122.173887,37.480999]}},{"name":"Meetup","category_code":"web","number_of_employees":75.0,"founded_year":2002,"description":null,"zip_code":"10012","city":"New York","state_code":"NY","country_code":"USA","location":{"type":"Point","coordinates":[-73.995722,40.72604]}},{"name":"SmugMug","category_code":"photo_video","number_of_employees":62.0,"founded_year":2002,"description":"","zip_code":"94041","city":"Mountain View","state_code":"CA","country_code":"USA","location":{"type":"Point","coordinates":[-122.067692,37.390056]}},{"name":"LifeLock","category_code":"security","number_of_employees":644.0,"founded_year":2005,"description":"","zip_code":"85281","city":"Tempe","state_code":"AZ","country_code":"USA","location":{"type":"Point","coordinates":[-111.938739,33.429859]}},{"name":"Prosper","category_code":"finance","number_of_employees":null,"founded_year":2006,"description":"","zip_code":"94105","city":"San Francisco","state_code":"CA","country_code":"USA","location":{"type":"Point","coordinates":[-122.402524,37.78976]}},{"name":"Jajah","category_code":"mobile","number_of_employees":110.0,"founded_year":2005,"description":"Jajah HQ","zip_code":"94043","city":"Mountain View","state_code":"CA","country_code":"USA","location":{"type":"Point","coordinates":[-122.0899512,37.4233896]}},{"name":"YouTube","category_code":"games_video","number_of_employees":0.0,"founded_year":2005,"description":"Corporate Headquarters","zip_code":"94066","city":"San Bruno","state_code":"CA","country_code":"USA","location":{"type":"Point","coordinates":[-122.426804,37.627971]}},{"name":"blogTV","category_code":"games_video","number_of_employees":null,"founded_year":2006,"description":"Headquarters","zip_code":"52573","city":"Ramat Gan","state_code":null,"country_code":"ISR","location":{"type":"Point","coordinates":[34.851612,31.046051]}},{"name":"Skype","category_code":"software","number_of_employees":0.0,"founded_year":2003,"description":"Global HQ","zip_code":"L-2165","city":"Luxembourg City","state_code":null,"country_code":"LUX","location":{"type":"Point","coordinates":[-0.131916,51.518132]}},{"name":"AdaptiveBlue","category_code":"games_video","number_of_employees":15.0,"founded_year":2007,"description":"","zip_code":"10013","city":"NYC","state_code":"NY","country_code":"USA","location":{"type":"Point","coordinates":[-74.3372,40.801358]}},{"name":"Livestream","category_code":"games_video","number_of_employees":120.0,"founded_year":2007,"description":"Livestream HQ","zip_code":"10011","city":"New York","state_code":"NY","country_code":"USA","location":{"type":"Point","coordinates":[-73.995625,40.726155]}},{"name":"Ustream","category_code":"games_video","number_of_employees":250.0,"founded_year":2007,"description":"San Francisco Office","zip_code":"94107","city":"San Francisco","state_code":"CA","country_code":"USA","location":{"type":"Point","coordinates":[-122.07948,37.392936]}},{"name":"Pando Networks","category_code":"games_video","number_of_employees":23.0,"founded_year":2004,"description":null,"zip_code":"10012","city":"New York","state_code":"NY","country_code":"USA","location":{"type":"Point","coordinates":[-73.99873,40.722655]}},{"name":"Ikan","category_code":"web","number_of_employees":5.0,"founded_year":2003,"description":null,"zip_code":"06902","city":"Stamford","state_code":"CT","country_code":"USA","location":{"type":"Point","coordinates":[-73.563878,41.049051]}},{"name":"GrandCentral","category_code":"mobile","number_of_employees":3.0,"founded_year":2006,"description":null,"zip_code":"94538","city":"Fremont","state_code":"CA","country_code":"USA","location":{"type":"Point","coordinates":[-121.932202,37.465645]}},{"name":"Topix","category_code":"web","number_of_employees":null,"founded_year":2002,"description":null,"zip_code":"94301","city":"Palo Alto","state_code":"CA","country_code":"USA","location":{"type":"Point","coordinates":[-122.151198,37.44296]}},{"name":"Pownce","category_code":"web","number_of_employees":6.0,"founded_year":2007,"description":"","zip_code":"94107","city":"San Francisco","state_code":"CA","country_code":"USA","location":{"type":"Point","coordinates":[-122.397224,37.762541]}},{"name":"Jobster","category_code":"search","number_of_employees":null,"founded_year":2004,"description":null,"zip_code":"98121","city":"Seattle","state_code":"WA","country_code":"USA","location":{"type":"Point","coordinates":[-122.357242,47.617682]}},{"name":"CriticalMetrics","category_code":"web","number_of_employees":4.0,"founded_year":2007,"description":null,"zip_code":null,"city":null,"state_code":"CA","country_code":"USA","location":{"type":"Point","coordinates":[-119.306607,37.269175]}},{"name":"ZenZui","category_code":"mobile","number_of_employees":null,"founded_year":2007,"description":null,"zip_code":null,"city":"Seattle","state_code":"WA","country_code":"USA","location":{"type":"Point","coordinates":[-122.347533,47.620716]}},{"name":"Spock","category_code":"search","number_of_employees":30.0,"founded_year":2006,"description":"QLL COMMUNICATIONS","zip_code":"13457","city":"SCHUYLER LAKE","state_code":"NY","country_code":"USA","location":{"type":"Point","coordinates":[-122.217964,37.488336]}},{"name":"Revision3","category_code":"games_video","number_of_employees":null,"founded_year":2005,"description":"HQ","zip_code":"94107","city":"San Francisco","state_code":"CA","country_code":"USA","location":{"type":"Point","coordinates":[-122.388243,37.757758]}},{"name":"Wize","category_code":"ecommerce","number_of_employees":null,"founded_year":2006,"description":"","zip_code":"94010","city":"Burlingame","state_code":"CA","country_code":"USA","location":{"type":"Point","coordinates":[-122.302262,37.559287]}},{"name":"SodaHead","category_code":"web","number_of_employees":25.0,"founded_year":2007,"description":"","zip_code":"91436","city":"Encino","state_code":"CA","country_code":"USA","location":{"type":"Point","coordinates":[-119.306607,37.269175]}},{"name":"CastTV","category_code":"games_video","number_of_employees":0.0,"founded_year":2006,"description":null,"zip_code":"94107","city":"San Francisco","state_code":"CA","country_code":"USA","location":{"type":"Point","coordinates":[-122.393913,37.780716]}},{"name":"iSkoot","category_code":"mobile","number_of_employees":null,"founded_year":2005,"description":null,"zip_code":null,"city":"Cambridge","state_code":"MA","country_code":"USA","location":{"type":"Point","coordinates":[-71.118487,42.375392]}},{"name":"iSkoot","category_code":"mobile","number_of_employees":null,"founded_year":2005,"description":"iSkoot HQ","zip_code":"94107","city":"San Francisco","state_code":"CA","country_code":"USA","location":{"type":"Point","coordinates":[-122.396744,37.780134]}},{"name":"Steorn","category_code":"web","number_of_employees":null,"founded_year":2000,"description":null,"zip_code":"","city":"Dublin","state_code":null,"country_code":"IRL","location":{"type":"Point","coordinates":[-6.229255,53.354997]}},{"name":"Funny Or Die","category_code":"games_video","number_of_employees":null,"founded_year":2007,"description":"Head Quarters","zip_code":"94401","city":"San Mateo","state_code":"CA","country_code":"USA","location":{"type":"Point","coordinates":[-122.137444,37.421621]}},{"name":"MeeVee","category_code":"games_video","number_of_employees":null,"founded_year":2000,"description":null,"zip_code":"94010","city":"Burlingame","state_code":"CA","country_code":"USA","location":{"type":"Point","coordinates":[-122.341715,37.590339]}},{"name":"blinkx","category_code":"games_video","number_of_employees":null,"founded_year":2004,"description":null,"zip_code":"94105","city":"San Francisco","state_code":"CA","country_code":"USA","location":{"type":"Point","coordinates":[-122.395089,37.793819]}},{"name":"ClipBlast!","category_code":"web","number_of_employees":15.0,"founded_year":2005,"description":null,"zip_code":"91301","city":"Agoura Hills","state_code":"CA","country_code":"USA","location":{"type":"Point","coordinates":[-118.756618,34.155211]}},{"name":"Mashery","category_code":"enterprise","number_of_employees":0.0,"founded_year":2006,"description":"Headquarters","zip_code":"94103","city":"San Francisco","state_code":"CA","country_code":"USA","location":{"type":"Point","coordinates":[-122.4038047,37.7870842]}},{"name":"Yelp","category_code":"search","number_of_employees":800.0,"founded_year":2004,"description":"","zip_code":"94103","city":"San Francisco","state_code":"CA","country_code":"USA","location":{"type":"Point","coordinates":[-122.402195,37.786183]}},{"name":"Wakoopa","category_code":"web","number_of_employees":8.0,"founded_year":2007,"description":"Arts & Crafts","zip_code":"1012LM","city":"Amsterdam","state_code":null,"country_code":"NLD","location":{"type":"Point","coordinates":[4.8948623,52.3745228]}},{"name":"Zamzar","category_code":"web","number_of_employees":2.0,"founded_year":2006,"description":"","zip_code":"SO18 1NH","city":"Southampton","state_code":null,"country_code":"GBR","location":{"type":"Point","coordinates":[-1.3610845,50.9444598]}},{"name":"Yapta","category_code":"travel","number_of_employees":null,"founded_year":2007,"description":null,"zip_code":"98104","city":"Seattle","state_code":"WA","country_code":"USA","location":{"type":"Point","coordinates":[-122.334264,47.599925]}},{"name":"Farecast","category_code":"search","number_of_employees":26.0,"founded_year":2003,"description":null,"zip_code":"98119","city":"Seattle","state_code":"WA","country_code":"USA","location":{"type":"Point","coordinates":[-122.359397,47.620982]}},{"name":"coRank","category_code":"web","number_of_employees":0.0,"founded_year":2007,"description":null,"zip_code":"94086","city":"Sunnyvale","state_code":"CA","country_code":"USA","location":{"type":"Point","coordinates":[-122.02421,37.36965]}},{"name":"ConVerdge","category_code":"enterprise","number_of_employees":25.0,"founded_year":2006,"description":"","zip_code":"90401","city":"Santa Monica","state_code":"CA","country_code":"USA","location":{"type":"Point","coordinates":[-118.495155,34.0126379]}},{"name":"KickApps","category_code":"enterprise","number_of_employees":72.0,"founded_year":2004,"description":"Headquarters","zip_code":"10011","city":"New York","state_code":"NY","country_code":"USA","location":{"type":"Point","coordinates":[-73.9843328,40.7516611]}},{"name":"KickApps","category_code":"enterprise","number_of_employees":72.0,"founded_year":2004,"description":"Los Angeles Office","zip_code":"90291","city":"Venice","state_code":"CA","country_code":"USA","location":{"type":"Point","coordinates":[-118.468707,33.991101]}},{"name":"KickApps","category_code":"enterprise","number_of_employees":72.0,"founded_year":2004,"description":"San Francisco Office","zip_code":"94105","city":"San Francisco","state_code":"CA","country_code":"USA","location":{"type":"Point","coordinates":[-122.4016144,37.7891086]}},{"name":"KickApps","category_code":"enterprise","number_of_employees":72.0,"founded_year":2004,"description":"UK Office","zip_code":"W1J 9HF","city":"London","state_code":null,"country_code":"GBR","location":{"type":"Point","coordinates":[-0.1356235,51.5094731]}},{"name":"Pageflakes","category_code":"web","number_of_employees":20.0,"founded_year":2006,"description":null,"zip_code":"94114","city":"San Francisco","state_code":"CA","country_code":"USA","location":{"type":"Point","coordinates":[-122.414689,37.758113]}},{"name":"RockYou","category_code":"games_video","number_of_employees":106.0,"founded_year":2005,"description":"","zip_code":"94063","city":"Redwood City","state_code":"CA","country_code":"USA","location":{"type":"Point","coordinates":[-122.206893,37.484619]}},{"name":"Instructables","category_code":"web","number_of_employees":null,"founded_year":2005,"description":"","zip_code":"94103","city":"San Francisco","state_code":"CA","country_code":"USA","location":{"type":"Point","coordinates":[-122.4058887,37.7791761]}},{"name":"Netvibes","category_code":"web","number_of_employees":35.0,"founded_year":2005,"description":"Paris","zip_code":"75017","city":"Paris","state_code":null,"country_code":"FRA","location":{"type":"Point","coordinates":[2.34668,48.870806]}},{"name":"Flickr","category_code":"web","number_of_employees":36.0,"founded_year":2004,"description":"HQ","zip_code":"94089","city":"Sunnyvale","state_code":"CA","country_code":"USA","location":{"type":"Point","coordinates":[-122.025485,37.418531]}},{"name":"Bebo","category_code":"web","number_of_employees":0.0,"founded_year":2005,"description":"","zip_code":"94108","city":"San Francisco","state_code":"CA","country_code":"USA","location":{"type":"Point","coordinates":[-122.401116,37.782103]}},{"name":"WeFi","category_code":"mobile","number_of_employees":null,"founded_year":2006,"description":null,"zip_code":"22033","city":"Fairfax","state_code":"VA","country_code":"USA","location":{"type":"Point","coordinates":[-95.712891,37.09024]}},{"name":"CrowdVine","category_code":"web","number_of_employees":10.0,"founded_year":2007,"description":"","zip_code":"94941-2464","city":"Mill Valley","state_code":"CA","country_code":"USA","location":{"type":"Point","coordinates":[-122.511687,37.90077]}},{"name":"FeedBurner","category_code":"web","number_of_employees":null,"founded_year":2004,"description":null,"zip_code":"60610","city":"Chicago","state_code":"IL","country_code":"USA","location":{"type":"Point","coordinates":[-87.628912,41.889474]}},{"name":"TVtrip","category_code":"web","number_of_employees":null,"founded_year":2007,"description":null,"zip_code":"","city":"Paris","state_code":null,"country_code":"FRA","location":{"type":"Point","coordinates":[2.350987,48.856667]}},{"name":"TheFind","category_code":"ecommerce","number_of_employees":null,"founded_year":2006,"description":"","zip_code":"94041","city":"Mountain View","state_code":"CA","country_code":"USA","location":{"type":"Point","coordinates":[-122.073463,37.391502]}},{"name":"Dogster","category_code":"web","number_of_employees":null,"founded_year":2004,"description":null,"zip_code":"","city":"San Francisco","state_code":"CA","country_code":"USA","location":{"type":"Point","coordinates":[-122.400909,37.762681]}},{"name":"WatZatSong","category_code":"web","number_of_employees":3.0,"founded_year":2006,"description":null,"zip_code":"75011","city":"Paris","state_code":null,"country_code":"FRA","location":{"type":"Point","coordinates":[2.381514,48.866323]}},{"name":"Loomia","category_code":"web","number_of_employees":null,"founded_year":2004,"description":null,"zip_code":"94133","city":"San Francisco","state_code":"CA","country_code":"USA","location":{"type":"Point","coordinates":[-122.404869,37.796396]}},{"name":"CornerWorld","category_code":"public_relations","number_of_employees":null,"founded_year":2002,"description":null,"zip_code":"75251","city":"Dallas","state_code":"TX","country_code":"USA","location":{"type":"Point","coordinates":[-96.771281,32.914662]}},{"name":"Meebo","category_code":"web","number_of_employees":200.0,"founded_year":2005,"description":"Headquarters","zip_code":"94041","city":"Mountain View","state_code":"CA","country_code":"USA","location":{"type":"Point","coordinates":[-122.079017,37.393679]}},{"name":"FlickIM","category_code":"mobile","number_of_employees":null,"founded_year":2006,"description":"HQ","zip_code":"","city":"Berkeley","state_code":"CA","country_code":"USA","location":{"type":"Point","coordinates":[-122.269259,37.870744]}},{"name":"Newsvine","category_code":"web","number_of_employees":8.0,"founded_year":2005,"description":null,"zip_code":"98119","city":"Seattle","state_code":"WA","country_code":"USA","location":{"type":"Point","coordinates":[-122.358484,47.618599]}},{"name":"Eventbrite","category_code":"web","number_of_employees":200.0,"founded_year":2006,"description":"HQ","zip_code":"94107","city":"San Francisco","state_code":"CA","country_code":"USA","location":{"type":"Point","coordinates":[-122.39071,37.779507]}},{"name":"Jamendo","category_code":"other","number_of_employees":20.0,"founded_year":2005,"description":"","zip_code":"1930","city":"Luxembourg","state_code":null,"country_code":"LUX","location":{"type":"Point","coordinates":[6.1329985,49.6026778]}},{"name":"Terabitz","category_code":"web","number_of_employees":12.0,"founded_year":2006,"description":"HQ","zip_code":"94306-2123","city":"Palo Alto","state_code":"CA","country_code":"USA","location":{"type":"Point","coordinates":[-122.159928,37.437328]}},{"name":"Box","category_code":"network_hosting","number_of_employees":950.0,"founded_year":2005,"description":"HQ","zip_code":"94022","city":"Los Altos","state_code":"CA","country_code":"USA","location":{"type":"Point","coordinates":[-122.143701,37.425801]}},{"name":"LinkedIn","category_code":"social","number_of_employees":4800.0,"founded_year":2003,"description":"HQ","zip_code":"94043","city":"Mountain View","state_code":"CA","country_code":"USA","location":{"type":"Point","coordinates":[-122.073635,37.423258]}},{"name":"Conduit","category_code":"advertising","number_of_employees":215.0,"founded_year":2005,"description":"","zip_code":"94404","city":"Foster City","state_code":"CA","country_code":"USA","location":{"type":"Point","coordinates":[-122.325248,37.561877]}},{"name":"Kaboodle","category_code":"ecommerce","number_of_employees":null,"founded_year":2005,"description":"","zip_code":"94041","city":"Sunnyvale","state_code":"CA","country_code":"USA","location":{"type":"Point","coordinates":[-122.036301,37.382162]}},{"name":"Carbonite","category_code":"network_hosting","number_of_employees":68.0,"founded_year":2006,"description":"Headquarters","zip_code":"02116","city":"Boston","state_code":"MA","country_code":"USA","location":{"type":"Point","coordinates":[-71.076869,42.350571]}},{"name":"Wink","category_code":"search","number_of_employees":null,"founded_year":2004,"description":"","zip_code":"94041","city":"Mountain View","state_code":"CA","country_code":"USA","location":{"type":"Point","coordinates":[-122.072981,37.40047]}},{"name":"Go2Web20","category_code":"web","number_of_employees":0.0,"founded_year":2006,"description":null,"zip_code":"","city":"Tel Aviv","state_code":null,"country_code":"ISR","location":{"type":"Point","coordinates":[34.7595,32.0554]}},{"name":"GigaOM","category_code":"news","number_of_employees":75.0,"founded_year":2006,"description":null,"zip_code":"","city":"San Francisco","state_code":"CA","country_code":"USA","location":{"type":"Point","coordinates":[-122.419204,37.775196]}},{"name":"GigaOM","category_code":"news","number_of_employees":75.0,"founded_year":2006,"description":"","zip_code":"","city":"New York","state_code":"NY","country_code":"USA","location":{"type":"Point","coordinates":[-74.0059731,40.7143528]}},{"name":"Redfin","category_code":"real_estate","number_of_employees":100.0,"founded_year":2004,"description":"","zip_code":"98121","city":"Seattle","state_code":"WA","country_code":"USA","location":{"type":"Point","coordinates":[-122.333253,47.603122]}},{"name":"TechnologyGuide","category_code":"web","number_of_employees":10.0,"founded_year":2001,"description":null,"zip_code":"45230","city":"Cincinnati","state_code":"OH","country_code":"USA","location":{"type":"Point","coordinates":[-84.351532,39.06685]}},{"name":"iLike","category_code":"games_video","number_of_employees":28.0,"founded_year":2002,"description":null,"zip_code":"98122","city":"Seattle","state_code":"WA","country_code":"USA","location":{"type":"Point","coordinates":[-122.323408,47.615313]}},{"name":"Seesmic","category_code":"web","number_of_employees":13.0,"founded_year":2007,"description":"","zip_code":"94103","city":"San Francisco","state_code":"CA","country_code":"USA","location":{"type":"Point","coordinates":[-122.419204,37.775196]}},{"name":"Techmeme","category_code":"web","number_of_employees":11.0,"founded_year":2004,"description":"","zip_code":"94107","city":"San Francisco","state_code":"CA","country_code":"USA","location":{"type":"Point","coordinates":[-122.3985871,37.7618242]}},{"name":"Zvents","category_code":"web","number_of_employees":55.0,"founded_year":2005,"description":null,"zip_code":null,"city":"San Mateo","state_code":"CA","country_code":"USA","location":{"type":"Point","coordinates":[-122.301534,37.553121]}},{"name":"Oodle","category_code":"social","number_of_employees":null,"founded_year":2004,"description":null,"zip_code":"94410","city":"San Mateo","state_code":"CA","country_code":"USA","location":{"type":"Point","coordinates":[-122.324621,37.563585]}},{"name":"Simply Hired","category_code":"search","number_of_employees":100.0,"founded_year":2004,"description":"HQ","zip_code":"94085","city":"Sunnyvale","state_code":"CA","country_code":"USA","location":{"type":"Point","coordinates":[-122.0780632,37.4219165]}},{"name":"Eventful","category_code":"web","number_of_employees":60.0,"founded_year":2004,"description":"","zip_code":"92130","city":"San Diego","state_code":"CA","country_code":"USA","location":{"type":"Point","coordinates":[-117.206292,32.872081]}},{"name":"oDesk","category_code":"web","number_of_employees":120.0,"founded_year":2005,"description":"","zip_code":"94063","city":"Redwood City","state_code":"CA","country_code":"USA","location":{"type":"Point","coordinates":[-122.178557,37.479952]}},{"name":"Cofoundr","category_code":"network_hosting","number_of_employees":0.0,"founded_year":2007,"description":null,"zip_code":"94109","city":null,"state_code":"CA","country_code":"USA","location":{"type":"Point","coordinates":[-122.420903,37.796164]}},{"name":"ooma","category_code":"hardware","number_of_employees":47.0,"founded_year":2004,"description":"","zip_code":"94303","city":"Palo Alto","state_code":"CA","country_code":"USA","location":{"type":"Point","coordinates":[-122.116026,37.451958]}},{"name":"stylediary","category_code":"web","number_of_employees":0.0,"founded_year":2004,"description":null,"zip_code":"90036","city":"","state_code":"CA","country_code":"USA","location":{"type":"Point","coordinates":[-118.350486,34.070436]}},{"name":"Gumiyo","category_code":"web","number_of_employees":0.0,"founded_year":2006,"description":"","zip_code":"91364","city":"Woodland Hills","state_code":"CA","country_code":"USA","location":{"type":"Point","coordinates":[-118.601532,34.184598]}},{"name":"GoingOn","category_code":"software","number_of_employees":40.0,"founded_year":2008,"description":"GoingOn Networks, Inc.","zip_code":"94111","city":"San Francisco","state_code":"CA","country_code":"USA","location":{"type":"Point","coordinates":[-122.392142,37.782263]}},{"name":"MyPublicInfo","category_code":"web","number_of_employees":7.0,"founded_year":2004,"description":null,"zip_code":"22209","city":"Arlington","state_code":"VA","country_code":"USA","location":{"type":"Point","coordinates":[-77.072003,38.897428]}},{"name":"Flixster","category_code":"web","number_of_employees":75.0,"founded_year":2006,"description":"","zip_code":"94103","city":"San Francisco","state_code":"CA","country_code":"USA","location":{"type":"Point","coordinates":[-122.406676,37.766909]}},{"name":"Checkster","category_code":"web","number_of_employees":0.0,"founded_year":2006,"description":null,"zip_code":"94941","city":"Mill Valley","state_code":"CA","country_code":"USA","location":{"type":"Point","coordinates":[-122.547445,37.905544]}},{"name":"Vast","category_code":"ecommerce","number_of_employees":null,"founded_year":2001,"description":"Vast San Francisco","zip_code":"94108","city":"San Francisco","state_code":"CA","country_code":"USA","location":{"type":"Point","coordinates":[-122.397759,37.787183]}},{"name":"IceRocket","category_code":"search","number_of_employees":null,"founded_year":2004,"description":null,"zip_code":null,"city":"Dallas","state_code":"TX","country_code":"USA","location":{"type":"Point","coordinates":[-96.797111,32.781078]}},{"name":"Socialtext","category_code":"enterprise","number_of_employees":50.0,"founded_year":2002,"description":null,"zip_code":"94301","city":"Palo Alto","state_code":"CA","country_code":"USA","location":{"type":"Point","coordinates":[-122.1615,37.442949]}},{"name":"Spreadshirt","category_code":"advertising","number_of_employees":230.0,"founded_year":2002,"description":null,"zip_code":"15222","city":"Pittsburgh","state_code":"PA","country_code":"USA","location":{"type":"Point","coordinates":[-80.004195,40.437985]}},{"name":"spigit","category_code":"software","number_of_employees":120.0,"founded_year":2006,"description":"","zip_code":"94566","city":"Pleasanton","state_code":"CA","country_code":"USA","location":{"type":"Point","coordinates":[-121.8731805,37.6637279]}},{"name":"spigit","category_code":"software","number_of_employees":120.0,"founded_year":2006,"description":"One Freedom Drive","zip_code":"20190","city":"Reston","state_code":"VA","country_code":"USA","location":{"type":"Point","coordinates":[-77.3592746,38.9590083]}},{"name":"spigit","category_code":"software","number_of_employees":120.0,"founded_year":2006,"description":"","zip_code":"W1W 8RL","city":"London","state_code":null,"country_code":"GBR","location":{"type":"Point","coordinates":[-0.1394759,51.5170385]}},{"name":"Bazaarvoice","category_code":"software","number_of_employees":600.0,"founded_year":2005,"description":"Head Office","zip_code":"78746","city":"Austin","state_code":"TX","country_code":"USA","location":{"type":"Point","coordinates":[-97.717667,30.407545]}},{"name":"ConnectMeAnywhere","category_code":"web","number_of_employees":null,"founded_year":2006,"description":null,"zip_code":null,"city":"London W11 2HX","state_code":null,"country_code":"GBR","location":{"type":"Point","coordinates":[-0.205349,51.514935]}},{"name":"Clipperz","category_code":"web","number_of_employees":2.0,"founded_year":2005,"description":null,"zip_code":"48012","city":"Bagnacavallo","state_code":null,"country_code":"ITA","location":{"type":"Point","coordinates":[11.978686,44.418166]}},{"name":"ScanScout","category_code":"advertising","number_of_employees":40.0,"founded_year":2005,"description":"Headquarters","zip_code":"02110","city":"Boston","state_code":"MA","country_code":"USA","location":{"type":"Point","coordinates":[-71.051931,42.340889]}},{"name":"ScanScout","category_code":"advertising","number_of_employees":40.0,"founded_year":2005,"description":"New York Office","zip_code":"10011","city":"New York","state_code":"NY","country_code":"USA","location":{"type":"Point","coordinates":[-73.993158,40.739833]}},{"name":"ScanScout","category_code":"advertising","number_of_employees":40.0,"founded_year":2005,"description":"Los Angeles Office","zip_code":"90025","city":"Los Angeles","state_code":"CA","country_code":"USA","location":{"type":"Point","coordinates":[-118.459995,34.050887]}},{"name":"Tagged","category_code":"social","number_of_employees":162.0,"founded_year":2004,"description":"San Francisco, USA","zip_code":"94119-3152","city":"San Francisco","state_code":"CA","country_code":"USA","location":{"type":"Point","coordinates":[-122.4186,37.7753]}},{"name":"Cerado","category_code":"web","number_of_employees":null,"founded_year":2002,"description":"","zip_code":"94303","city":"Palo Alto","state_code":"CA","country_code":"USA","location":{"type":"Point","coordinates":[-122.415375,37.774321]}},{"name":"hi5","category_code":"games_video","number_of_employees":100.0,"founded_year":2003,"description":"","zip_code":"94105","city":"San Francisco","state_code":"CA","country_code":"USA","location":{"type":"Point","coordinates":[-122.400558,37.788668]}},{"name":"Indeed","category_code":"web","number_of_employees":null,"founded_year":2004,"description":"","zip_code":"06901","city":"Stamford","state_code":"CT","country_code":"USA","location":{"type":"Point","coordinates":[-73.558082,41.038155]}},{"name":"Jaxtr","category_code":"mobile","number_of_employees":30.0,"founded_year":2005,"description":null,"zip_code":"94025","city":"Menlo Park","state_code":"CA","country_code":"USA","location":{"type":"Point","coordinates":[-122.18676,37.451026]}},{"name":"introNetworks","category_code":"web","number_of_employees":11.0,"founded_year":2003,"description":"Corporate Headquarters","zip_code":"93108","city":"Montecito","state_code":"CA","country_code":"USA","location":{"type":"Point","coordinates":[-119.641821,34.42071]}},{"name":"ONEsite","category_code":"other","number_of_employees":50.0,"founded_year":2005,"description":null,"zip_code":"73134","city":"Oklahoma City","state_code":"OK","country_code":"USA","location":{"type":"Point","coordinates":[-97.5736,35.612679]}},{"name":"Respectance","category_code":"web","number_of_employees":15.0,"founded_year":2006,"description":"","zip_code":"","city":"San Mateo","state_code":"CA","country_code":"USA","location":{"type":"Point","coordinates":[-122.321836,37.55909]}},{"name":"Wallhogs","category_code":"public_relations","number_of_employees":52.0,"founded_year":2006,"description":"","zip_code":"15601","city":"Greensburg","state_code":"PA","country_code":"USA","location":{"type":"Point","coordinates":[-79.462703,40.30305]}},{"name":"GoLightly","category_code":"software","number_of_employees":null,"founded_year":2005,"description":null,"zip_code":"94941","city":"Mill Valley","state_code":"CA","country_code":"USA","location":{"type":"Point","coordinates":[-122.537302,37.898575]}},{"name":"eBuddy","category_code":"messaging","number_of_employees":90.0,"founded_year":2003,"description":"Global Headquarters","zip_code":"1017 DR","city":"Amsterdam","state_code":null,"country_code":"NLD","location":{"type":"Point","coordinates":[4.8919457,52.3640933]}},{"name":"eBuddy","category_code":"messaging","number_of_employees":90.0,"founded_year":2003,"description":"US Headquarters","zip_code":"94102","city":"San Francisco","state_code":"CA","country_code":"USA","location":{"type":"Point","coordinates":[-122.410943,37.787683]}},{"name":"eBuddy","category_code":"messaging","number_of_employees":90.0,"founded_year":2003,"description":"Singapore office","zip_code":"","city":"Singapore","state_code":null,"country_code":"SGP","location":{"type":"Point","coordinates":[-0.126236,51.500152]}},{"name":"Grockit","category_code":"social","number_of_employees":25.0,"founded_year":2006,"description":"","zip_code":"94107","city":"San Francisco","state_code":"CA","country_code":"USA","location":{"type":"Point","coordinates":[-122.419204,37.775196]}},{"name":"Kiptronic","category_code":"advertising","number_of_employees":20.0,"founded_year":2005,"description":"","zip_code":"94104","city":"San Francisco","state_code":"CA","country_code":"USA","location":{"type":"Point","coordinates":[-122.402349,37.792394]}},{"name":"Curse","category_code":"games_video","number_of_employees":58.0,"founded_year":2006,"description":"San Francisco","zip_code":"94111","city":"San Francisco","state_code":"CA","country_code":"USA","location":{"type":"Point","coordinates":[-122.399972,37.787092]}},{"name":"Zenfolio","category_code":"network_hosting","number_of_employees":null,"founded_year":2005,"description":"","zip_code":"94025","city":"Menlo Park","state_code":"CA","country_code":"USA","location":{"type":"Point","coordinates":[-122.1802812,37.4484914]}},{"name":"FeVote","category_code":"web","number_of_employees":1.0,"founded_year":2007,"description":"","zip_code":"94102","city":"San Francisco","state_code":"CA","country_code":"USA","location":{"type":"Point","coordinates":[-122.417928,37.779392]}},{"name":"JumpBox","category_code":"software","number_of_employees":5.0,"founded_year":2006,"description":"","zip_code":"85060","city":"Phoenix","state_code":"AZ","country_code":"USA","location":{"type":"Point","coordinates":[-111.944967,33.429864]}},{"name":"Phonezoo","category_code":"web","number_of_employees":null,"founded_year":2006,"description":"","zip_code":"94085","city":"Sunnyvale","state_code":"CA","country_code":"USA","location":{"type":"Point","coordinates":[-121.991471,37.386376]}},{"name":"Relationals","category_code":"web","number_of_employees":null,"founded_year":2007,"description":null,"zip_code":"94085","city":"Sunnyvale","state_code":"CA","country_code":"USA","location":{"type":"Point","coordinates":[-121.992132,37.384651]}},{"name":"Vuze","category_code":"games_video","number_of_employees":20.0,"founded_year":2005,"description":"Headquarters","zip_code":"94402","city":"San Mateo","state_code":"CA","country_code":"USA","location":{"type":"Point","coordinates":[-122.2262606,37.4858654]}},{"name":"Wishpot","category_code":"ecommerce","number_of_employees":10.0,"founded_year":2006,"description":"Headquarters","zip_code":"98104","city":"Seattle","state_code":"WA","country_code":"USA","location":{"type":"Point","coordinates":[-122.347533,47.620716]}},{"name":"Nononina","category_code":"web","number_of_employees":null,"founded_year":2007,"description":"SF Bay Area","zip_code":"","city":"","state_code":"CA","country_code":"USA","location":{"type":"Point","coordinates":[-119.306607,37.269175]}},{"name":"PodTech","category_code":"games_video","number_of_employees":null,"founded_year":2005,"description":null,"zip_code":"94304","city":"Palo Alto","state_code":"CA","country_code":"USA","location":{"type":"Point","coordinates":[-122.154176,37.408256]}},{"name":"NowPublic","category_code":"web","number_of_employees":null,"founded_year":2005,"description":"","zip_code":"","city":"Vancouver","state_code":null,"country_code":"CAN","location":{"type":"Point","coordinates":[-123.103986,49.283376]}},{"name":"DOmedia","category_code":"advertising","number_of_employees":null,"founded_year":2007,"description":"World Headquarters","zip_code":"43215","city":"Columbus","state_code":"OH","country_code":"USA","location":{"type":"Point","coordinates":[-83.005038,39.967704]}},{"name":"Crackle","category_code":"games_video","number_of_employees":null,"founded_year":2004,"description":"","zip_code":"90232","city":"Culver City","state_code":"CA","country_code":"USA","location":{"type":"Point","coordinates":[-118.401579,34.017506]}},{"name":"Clipmarks","category_code":"photo_video","number_of_employees":10.0,"founded_year":2003,"description":null,"zip_code":null,"city":"New York","state_code":"NY","country_code":"USA","location":{"type":"Point","coordinates":[-73.985506,40.757929]}},{"name":"Forbes","category_code":"web","number_of_employees":null,"founded_year":2007,"description":"","zip_code":"10011","city":"New York","state_code":"NY","country_code":"USA","location":{"type":"Point","coordinates":[-73.993302,40.736416]}},{"name":"Boonex","category_code":"software","number_of_employees":16.0,"founded_year":2000,"description":null,"zip_code":"2154","city":"Sydney","state_code":null,"country_code":"AUS","location":{"type":"Point","coordinates":[150.981801,-33.722577]}},{"name":"IntenseDebate","category_code":"web","number_of_employees":4.0,"founded_year":2006,"description":null,"zip_code":null,"city":"Boulder","state_code":"CO","country_code":"USA","location":{"type":"Point","coordinates":[-105.276843,40.010492]}},{"name":"Lotame","category_code":"advertising","number_of_employees":75.0,"founded_year":2006,"description":"Headquarters","zip_code":"21045","city":"Columbia","state_code":"MD","country_code":"USA","location":{"type":"Point","coordinates":[-76.77514,39.205649]}},{"name":"Lotame","category_code":"advertising","number_of_employees":75.0,"founded_year":2006,"description":"New York Office","zip_code":"10001","city":"New York","state_code":"MD","country_code":"USA","location":{"type":"Point","coordinates":[-73.995487,40.753631]}},{"name":"Lotame","category_code":"advertising","number_of_employees":75.0,"founded_year":2006,"description":"Boston Office","zip_code":"02139","city":"Cambridge","state_code":"MD","country_code":"USA","location":{"type":"Point","coordinates":[-71.056604,42.359146]}},{"name":"Rebtel","category_code":"mobile","number_of_employees":75.0,"founded_year":2006,"description":"Headquarters","zip_code":"131 52","city":"Nacka Strand","state_code":null,"country_code":"SWE","location":{"type":"Point","coordinates":[18.1582777,59.3167843]}},{"name":"Reddit","category_code":"web","number_of_employees":null,"founded_year":2005,"description":"","zip_code":"94107","city":"San Francisco","state_code":"CA","country_code":"USA","location":{"type":"Point","coordinates":[-122.395257,37.780883]}},{"name":"BuddyTV","category_code":"games_video","number_of_employees":20.0,"founded_year":2005,"description":"Seattle Headquarters","zip_code":"98109","city":"Seattle","state_code":"WA","country_code":"USA","location":{"type":"Point","coordinates":[-122.356756,47.61968]}},{"name":"Buxfer","category_code":"web","number_of_employees":4.0,"founded_year":2007,"description":"","zip_code":"","city":"Mountain View","state_code":"CA","country_code":"USA","location":{"type":"Point","coordinates":[-122.073003,37.400465]}},{"name":"boo-box","category_code":"advertising","number_of_employees":50.0,"founded_year":2007,"description":"boo-land","zip_code":"","city":"Sao Paulo","state_code":null,"country_code":"BRA","location":{"type":"Point","coordinates":[-46.679287,-23.558584]}},{"name":"Retrevo","category_code":"web","number_of_employees":null,"founded_year":2006,"description":"","zip_code":"","city":"Sunnyvale","state_code":"CA","country_code":"USA","location":{"type":"Point","coordinates":[-122.034021,37.368594]}},{"name":"Brightcove","category_code":"enterprise","number_of_employees":220.0,"founded_year":2004,"description":"Headquarters","zip_code":"02142","city":"Cambridge","state_code":"MA","country_code":"USA","location":{"type":"Point","coordinates":[-71.086596,42.362993]}},{"name":"Hightail","category_code":"network_hosting","number_of_employees":200.0,"founded_year":2004,"description":"","zip_code":"95008","city":"Campbell","state_code":"CA","country_code":"USA","location":{"type":"Point","coordinates":[-121.935688,37.288974]}},{"name":"Nimbuzz","category_code":"mobile","number_of_employees":140.0,"founded_year":2006,"description":"Nimbuzz Netherlands","zip_code":"2909 LK","city":"Capelle a\/d IJssel","state_code":null,"country_code":"NLD","location":{"type":"Point","coordinates":[4.5464658,51.9122575]}},{"name":"TextPayMe","category_code":"web","number_of_employees":null,"founded_year":2005,"description":null,"zip_code":null,"city":"Redmond","state_code":"WA","country_code":"USA","location":{"type":"Point","coordinates":[-122.115633,47.672229]}},{"name":"obopay","category_code":"mobile","number_of_employees":null,"founded_year":2005,"description":"","zip_code":"","city":"Redwood City","state_code":"CA","country_code":"USA","location":{"type":"Point","coordinates":[-122.258037,37.524729]}},{"name":"BillMonk","category_code":"web","number_of_employees":null,"founded_year":2005,"description":null,"zip_code":null,"city":"Seattle","state_code":"WA","country_code":"USA","location":{"type":"Point","coordinates":[-122.347533,47.620716]}},{"name":"MeeMix","category_code":"web","number_of_employees":9.0,"founded_year":2006,"description":null,"zip_code":"","city":"Tel Aviv","state_code":null,"country_code":"ISR","location":{"type":"Point","coordinates":[34.7595,32.0554]}},{"name":"Rocketboom","category_code":"news","number_of_employees":null,"founded_year":2007,"description":null,"zip_code":"10024","city":"New York","state_code":"NY","country_code":"USA","location":{"type":"Point","coordinates":[-73.97785,40.797364]}},{"name":"WallStrip","category_code":"games_video","number_of_employees":null,"founded_year":2006,"description":null,"zip_code":null,"city":null,"state_code":null,"country_code":"USA","location":{"type":"Point","coordinates":[-95.712891,37.09024]}},{"name":"Kaneva","category_code":"web","number_of_employees":null,"founded_year":2004,"description":null,"zip_code":"30328","city":"Atlanta","state_code":"GA","country_code":"USA","location":{"type":"Point","coordinates":[-84.350663,33.916374]}},{"name":"IMVU","category_code":"web","number_of_employees":150.0,"founded_year":2004,"description":"","zip_code":"94041","city":"Mountain View","state_code":"CA","country_code":"USA","location":{"type":"Point","coordinates":[-122.0727749,37.3927975]}},{"name":"madKast","category_code":"web","number_of_employees":null,"founded_year":2007,"description":null,"zip_code":null,"city":"Boulder","state_code":"CO","country_code":"USA","location":{"type":"Point","coordinates":[-105.276843,40.010492]}},{"name":"Userplane","category_code":"enterprise","number_of_employees":10.0,"founded_year":2001,"description":"Userplane HQ","zip_code":"90401","city":"Santa Monica","state_code":"CA","country_code":"USA","location":{"type":"Point","coordinates":[-118.495566,34.01676]}},{"name":"Outdoorzy","category_code":"network_hosting","number_of_employees":2.0,"founded_year":2006,"description":null,"zip_code":"42101","city":"Bowling Green","state_code":null,"country_code":"USA","location":{"type":"Point","coordinates":[-86.463026,37.018244]}},{"name":"Scrybe","category_code":"enterprise","number_of_employees":20.0,"founded_year":2007,"description":"","zip_code":"94105","city":"San Francisco","state_code":"CA","country_code":"USA","location":{"type":"Point","coordinates":[-74.761403,40.270666]}},{"name":"Aniboom","category_code":"games_video","number_of_employees":25.0,"founded_year":2006,"description":null,"zip_code":null,"city":null,"state_code":null,"country_code":"ISR","location":{"type":"Point","coordinates":[34.851612,31.046051]}},{"name":"Webkinz","category_code":"web","number_of_employees":8657.0,"founded_year":2005,"description":null,"zip_code":"L4L 3T2","city":"Woodbridge","state_code":null,"country_code":"CAN","location":{"type":"Point","coordinates":[-79.549577,43.76969]}},{"name":"Viagogo","category_code":"ecommerce","number_of_employees":null,"founded_year":2005,"description":"","zip_code":"94111-5540","city":"San Francisco","state_code":"CA","country_code":"USA","location":{"type":"Point","coordinates":[-0.126236,51.500152]}},{"name":"Sulake","category_code":"web","number_of_employees":null,"founded_year":2000,"description":"World Headquarters","zip_code":"00130","city":"Helsinki","state_code":null,"country_code":"FIN","location":{"type":"Point","coordinates":[24.945937,60.165166]}},{"name":"GreatCall","category_code":"mobile","number_of_employees":null,"founded_year":2005,"description":"","zip_code":"92130","city":"San Diego","state_code":"CA","country_code":"USA","location":{"type":"Point","coordinates":[-117.265191,32.964294]}},{"name":"Echo","category_code":"enterprise","number_of_employees":50.0,"founded_year":2007,"description":"headquarter","zip_code":"94010","city":"San francisco","state_code":"CA","country_code":"USA","location":{"type":"Point","coordinates":[-122.1879633,38.0729365]}},{"name":"Pickle","category_code":"web","number_of_employees":null,"founded_year":2006,"description":null,"zip_code":"22201","city":"Arlington","state_code":"VA","country_code":"USA","location":{"type":"Point","coordinates":[-77.081732,38.892371]}},{"name":"Techstars","category_code":"finance","number_of_employees":30.0,"founded_year":2006,"description":"HQ","zip_code":"","city":"Boulder","state_code":"CO","country_code":"USA","location":{"type":"Point","coordinates":[-105.276843,40.010492]}},{"name":"MindTouch","category_code":"enterprise","number_of_employees":0.0,"founded_year":2004,"description":"","zip_code":"92101","city":"San Diego","state_code":"CA","country_code":"USA","location":{"type":"Point","coordinates":[-117.167831,32.720656]}},{"name":"SelectMinds","category_code":"network_hosting","number_of_employees":55.0,"founded_year":2000,"description":null,"zip_code":"10010","city":"New York","state_code":"NY","country_code":"USA","location":{"type":"Point","coordinates":[-73.990004,40.740251]}},{"name":"Flock","category_code":"web","number_of_employees":40.0,"founded_year":2005,"description":"","zip_code":"94025","city":"Menlo Park","state_code":"CA","country_code":"USA","location":{"type":"Point","coordinates":[-122.228843,37.491356]}},{"name":"ChaCha","category_code":"advertising","number_of_employees":70.0,"founded_year":2005,"description":"Headquarters","zip_code":"46032","city":"Carmel","state_code":"IN","country_code":"USA","location":{"type":"Point","coordinates":[-86.130347,39.998641]}},{"name":"Sportingo","category_code":"web","number_of_employees":0.0,"founded_year":2006,"description":null,"zip_code":"46733","city":null,"state_code":null,"country_code":"ISR","location":{"type":"Point","coordinates":[-96.76492,17.08881]}},{"name":"Kontera","category_code":"advertising","number_of_employees":null,"founded_year":2003,"description":null,"zip_code":"94103","city":"San Francisco","state_code":"CA","country_code":"USA","location":{"type":"Point","coordinates":[-122.411157,37.767575]}},{"name":"Metacafe","category_code":"games_video","number_of_employees":null,"founded_year":2003,"description":"","zip_code":"94107","city":"San Francisco","state_code":"CA","country_code":"USA","location":{"type":"Point","coordinates":[-122.159928,37.437328]}},{"name":"Splashup","category_code":"web","number_of_employees":null,"founded_year":2007,"description":null,"zip_code":"","city":"","state_code":null,"country_code":"USA","location":{"type":"Point","coordinates":[-95.712891,37.09024]}},{"name":"Curverider","category_code":"network_hosting","number_of_employees":5.0,"founded_year":2005,"description":"","zip_code":"W1J 7BU","city":"London","state_code":null,"country_code":"GBR","location":{"type":"Point","coordinates":[-1.197534,51.785428]}},{"name":"Dropbox","category_code":"software","number_of_employees":350.0,"founded_year":2007,"description":"Headquarters","zip_code":"94107","city":"San Francisco","state_code":"CA","country_code":"USA","location":{"type":"Point","coordinates":[-122.4084994,37.7909427]}},{"name":"SomethingSimpler","category_code":"search","number_of_employees":null,"founded_year":2007,"description":null,"zip_code":"","city":"Vancouver","state_code":null,"country_code":"CAN","location":{"type":"Point","coordinates":[-123.138565,49.263588]}},{"name":"TokBox","category_code":"messaging","number_of_employees":55.0,"founded_year":2007,"description":"Corporate Headquarters","zip_code":"94107","city":"San Francisco","state_code":"CA","country_code":"USA","location":{"type":"Point","coordinates":[-122.39071,37.779507]}},{"name":"Weebly","category_code":"web","number_of_employees":70.0,"founded_year":2006,"description":"","zip_code":"94133","city":"San Francisco","state_code":"CA","country_code":"USA","location":{"type":"Point","coordinates":[-122.400729,37.795555]}},{"name":"Yola","category_code":"web","number_of_employees":70.0,"founded_year":2007,"description":"Yola San Francisco","zip_code":"94105","city":"San Francisco","state_code":"CA","country_code":"USA","location":{"type":"Point","coordinates":[-122.3954751,37.7911148]}},{"name":"Six Apart","category_code":"enterprise","number_of_employees":50.0,"founded_year":2001,"description":"Global HQ","zip_code":"107-0052","city":"Tokyo","state_code":null,"country_code":"JPN","location":{"type":"Point","coordinates":[139.7326754,35.6725213]}},{"name":"Kongregate","category_code":"games_video","number_of_employees":20.0,"founded_year":2006,"description":"","zip_code":"94105","city":"San Francisco","state_code":"CA","country_code":"USA","location":{"type":"Point","coordinates":[-122.401245,37.786942]}},{"name":"BitTorrent","category_code":"web","number_of_employees":80.0,"founded_year":2004,"description":"","zip_code":"94107","city":"San Francisco","state_code":"CA","country_code":"USA","location":{"type":"Point","coordinates":[-122.394668,37.790998]}},{"name":"Inneractive","category_code":"advertising","number_of_employees":0.0,"founded_year":2007,"description":"","zip_code":"94401-4046","city":"San Mateo","state_code":"CA","country_code":"USA","location":{"type":"Point","coordinates":[-122.3229235,37.5646055]}},{"name":"Socialthing","category_code":"network_hosting","number_of_employees":5.0,"founded_year":2007,"description":"HQ","zip_code":"80302","city":"Boulder","state_code":"CO","country_code":"USA","location":{"type":"Point","coordinates":[-105.2762236,40.0186731]}},{"name":"Filtrbox","category_code":"web","number_of_employees":14.0,"founded_year":2007,"description":"HQ","zip_code":"94301","city":"Palo Alto","state_code":"CA","country_code":"USA","location":{"type":"Point","coordinates":[-105.276843,40.010492]}},{"name":"Bountii","category_code":"ecommerce","number_of_employees":null,"founded_year":2007,"description":"","zip_code":"","city":"Palo Alto","state_code":"CA","country_code":"USA","location":{"type":"Point","coordinates":[-122.159928,37.437328]}},{"name":"Eventbee","category_code":"web","number_of_employees":null,"founded_year":2003,"description":"","zip_code":"94111","city":"San Francisco","state_code":"CA","country_code":"USA","location":{"type":"Point","coordinates":[-122.007172,37.383779]}},{"name":"GoFish","category_code":"games_video","number_of_employees":null,"founded_year":2003,"description":null,"zip_code":null,"city":null,"state_code":null,"country_code":"USA","location":{"type":"Point","coordinates":[-95.712891,37.09024]}},{"name":"Cloudant","category_code":"enterprise","number_of_employees":70.0,"founded_year":2008,"description":"","zip_code":"02111","city":"Boston","state_code":"MA","country_code":"USA","location":{"type":"Point","coordinates":[-71.05781,42.35892]}},{"name":"Kiva","category_code":"finance","number_of_employees":null,"founded_year":2005,"description":null,"zip_code":"94110","city":"San Francisco","state_code":"CA","country_code":"USA","location":{"type":"Point","coordinates":[-122.4147,37.762125]}},{"name":"Fathom Online","category_code":"advertising","number_of_employees":null,"founded_year":2002,"description":null,"zip_code":"","city":"San Francisco","state_code":"CA","country_code":"USA","location":{"type":"Point","coordinates":[-122.419204,37.775196]}},{"name":"KIT digital","category_code":"enterprise","number_of_employees":200.0,"founded_year":2008,"description":"New York Office","zip_code":"10011","city":"New York","state_code":"NY","country_code":"USA","location":{"type":"Point","coordinates":[-73.971655,40.751816]}},{"name":"KIT digital","category_code":"enterprise","number_of_employees":200.0,"founded_year":2008,"description":"Stockholm Office","zip_code":"SE-111 36","city":"Stockholm","state_code":null,"country_code":"SWE","location":{"type":"Point","coordinates":[18.0580765,59.3369746]}},{"name":"KIT digital","category_code":"enterprise","number_of_employees":200.0,"founded_year":2008,"description":"Toronto Office","zip_code":"L4W 4L5","city":"Mississauga, Ontario","state_code":null,"country_code":"CAN","location":{"type":"Point","coordinates":[-79.5983626,43.6587599]}},{"name":"Zopa","category_code":"finance","number_of_employees":null,"founded_year":2005,"description":"","zip_code":"W1T 1QD","city":"London","state_code":null,"country_code":"GBR","location":{"type":"Point","coordinates":[-0.139947,51.517904]}},{"name":"SuicideGirls","category_code":"web","number_of_employees":null,"founded_year":2001,"description":null,"zip_code":"90036","city":"Los Angeles","state_code":null,"country_code":"USA","location":{"type":"Point","coordinates":[-118.348198,34.062262]}},{"name":"Zivity","category_code":"network_hosting","number_of_employees":16.0,"founded_year":2007,"description":"","zip_code":"94107","city":"San Francisco","state_code":"CA","country_code":"USA","location":{"type":"Point","coordinates":[-122.397593,37.789488]}},{"name":"BlueLithium","category_code":"advertising","number_of_employees":135.0,"founded_year":2004,"description":"","zip_code":"95128","city":"San Jose","state_code":"CA","country_code":"USA","location":{"type":"Point","coordinates":[-121.948399,37.32052]}},{"name":"ContextWeb","category_code":"analytics","number_of_employees":null,"founded_year":2000,"description":null,"zip_code":"10007","city":"New York","state_code":"NY","country_code":"USA","location":{"type":"Point","coordinates":[-74.010808,40.71014]}},{"name":"Goowy","category_code":"web","number_of_employees":null,"founded_year":2004,"description":null,"zip_code":"92101","city":"San Diego","state_code":"CA","country_code":"USA","location":{"type":"Point","coordinates":[-117.163353,32.71537]}},{"name":"InviteShare","category_code":"public_relations","number_of_employees":null,"founded_year":2007,"description":null,"zip_code":"94027","city":"Atherton","state_code":"CA","country_code":"USA","location":{"type":"Point","coordinates":[-122.205016,37.450128]}},{"name":"A9","category_code":"web","number_of_employees":null,"founded_year":2003,"description":null,"zip_code":"94301","city":"Palo Alto","state_code":"CA","country_code":"USA","location":{"type":"Point","coordinates":[-122.164511,37.444554]}},{"name":"Doostang","category_code":"web","number_of_employees":10.0,"founded_year":2005,"description":"","zip_code":"94306","city":"Palo Alto","state_code":"CA","country_code":"USA","location":{"type":"Point","coordinates":[-122.145783,37.427235]}},{"name":"ZoomInfo","category_code":"search","number_of_employees":800.0,"founded_year":2000,"description":null,"zip_code":"02452","city":"Waltham","state_code":"MA","country_code":"USA","location":{"type":"Point","coordinates":[-71.207055,42.38532]}},{"name":"TechCrunch","category_code":"news","number_of_employees":null,"founded_year":2005,"description":"","zip_code":"94107-1537","city":"San Francisco","state_code":"CA","country_code":"USA","location":{"type":"Point","coordinates":[-122.1490582,37.4459832]}},{"name":"MySpace","category_code":"network_hosting","number_of_employees":800.0,"founded_year":2003,"description":"","zip_code":"90048","city":"Beverly Hills","state_code":"CA","country_code":"USA","location":{"type":"Point","coordinates":[-118.372953,34.076061]}},{"name":"Vlingo","category_code":"mobile","number_of_employees":null,"founded_year":2006,"description":null,"zip_code":"02138","city":"Cambridge","state_code":"MA","country_code":"USA","location":{"type":"Point","coordinates":[-71.118999,42.372912]}},{"name":"Docstoc","category_code":"web","number_of_employees":40.0,"founded_year":2007,"description":"","zip_code":"90401","city":"Santa Monica","state_code":"CA","country_code":"USA","location":{"type":"Point","coordinates":[-118.495025,34.018275]}},{"name":"Shock Treatment Management","category_code":"web","number_of_employees":null,"founded_year":2004,"description":null,"zip_code":"98101","city":"Seattle","state_code":"WA","country_code":"USA","location":{"type":"Point","coordinates":[-122.339859,47.610332]}},{"name":"Covestor","category_code":"finance","number_of_employees":null,"founded_year":2005,"description":"London","zip_code":"W1W 6AN","city":"London","state_code":null,"country_code":"GBR","location":{"type":"Point","coordinates":[-0.1433689,51.5194201]}},{"name":"Pluck","category_code":"web","number_of_employees":null,"founded_year":2003,"description":null,"zip_code":"","city":"Austin","state_code":"TX","country_code":"USA","location":{"type":"Point","coordinates":[-97.745209,30.268735]}},{"name":"NewsGator","category_code":"enterprise","number_of_employees":90.0,"founded_year":2004,"description":"NewsGator US Headquarters","zip_code":"80202","city":"Denver","state_code":"CO","country_code":"USA","location":{"type":"Point","coordinates":[-104.988123,39.755092]}},{"name":"Mevio","category_code":"games_video","number_of_employees":null,"founded_year":2004,"description":"","zip_code":"94107","city":"San Francisco","state_code":"CA","country_code":"USA","location":{"type":"Point","coordinates":[-122.392142,37.782263]}},{"name":"sezmi","category_code":"games_video","number_of_employees":null,"founded_year":2007,"description":"","zip_code":"94002","city":"Belmont","state_code":"CA","country_code":"USA","location":{"type":"Point","coordinates":[-122.265869,37.524422]}},{"name":"sezmi","category_code":"games_video","number_of_employees":null,"founded_year":2007,"description":"","zip_code":"90405","city":"Santa Monica","state_code":"CA","country_code":"USA","location":{"type":"Point","coordinates":[-118.453218,34.017373]}},{"name":"sezmi","category_code":"games_video","number_of_employees":null,"founded_year":2007,"description":"","zip_code":"33309","city":"Fort Lauderdale","state_code":"FL","country_code":"USA","location":{"type":"Point","coordinates":[-80.157296,26.207024]}},{"name":"eHarmony","category_code":"web","number_of_employees":null,"founded_year":2000,"description":"","zip_code":"90404","city":"Santa Monica","state_code":"CA","country_code":"USA","location":{"type":"Point","coordinates":[-118.132351,34.145946]}},{"name":"Friendster","category_code":"web","number_of_employees":70.0,"founded_year":2001,"description":"Head Quarters","zip_code":"","city":"Kuala Lumpur","state_code":null,"country_code":"MYS","location":{"type":"Point","coordinates":[101.686855,3.139003]}},{"name":"Greystripe","category_code":"advertising","number_of_employees":90.0,"founded_year":2005,"description":"Greystripe","zip_code":"94105","city":"San Francisco","state_code":"CA","country_code":"USA","location":{"type":"Point","coordinates":[-122.39323,37.710677]}},{"name":"Trulia","category_code":"search","number_of_employees":500.0,"founded_year":2004,"description":"World HQ","zip_code":"94501","city":"San Francisco","state_code":"CA","country_code":"USA","location":{"type":"Point","coordinates":[-122.406676,37.766909]}},{"name":"ReachLocal","category_code":"advertising","number_of_employees":1700.0,"founded_year":2004,"description":"Europe Headquarters","zip_code":"","city":"London","state_code":null,"country_code":"GBR","location":{"type":"Point","coordinates":[-72.188584,41.53155]}},{"name":"ReachLocal","category_code":"advertising","number_of_employees":1700.0,"founded_year":2004,"description":"Canada Headquarters","zip_code":"M3C 3R6","city":"Toronto","state_code":null,"country_code":"CAN","location":{"type":"Point","coordinates":[-79.338246,43.7192415]}},{"name":"DAVE Networks","category_code":"web","number_of_employees":null,"founded_year":2003,"description":"Corporate Headquarters","zip_code":"90066","city":"Los Angeles","state_code":"CA","country_code":"USA","location":{"type":"Point","coordinates":[-118.423423,33.979033]}},{"name":"DAVE Networks","category_code":"web","number_of_employees":null,"founded_year":2003,"description":"Mailing Address","zip_code":"90292-6905","city":"Marina Del Rey","state_code":"CA","country_code":"USA","location":{"type":"Point","coordinates":[-118.439787,33.979506]}},{"name":"Netblue","category_code":"web","number_of_employees":null,"founded_year":2002,"description":"HQ","zip_code":"94041","city":"Mountain View","state_code":"CA","country_code":"USA","location":{"type":"Point","coordinates":[-95.712891,37.09024]}},{"name":"TubeMogul","category_code":"advertising","number_of_employees":230.0,"founded_year":2006,"description":"Company Headquarters","zip_code":"94608","city":"Emeryville","state_code":"CA","country_code":"USA","location":{"type":"Point","coordinates":[-122.286493,37.836957]}},{"name":"LimeLife","category_code":"news","number_of_employees":null,"founded_year":2004,"description":null,"zip_code":"","city":"Menlo Park","state_code":"CA","country_code":"USA","location":{"type":"Point","coordinates":[-122.169472,37.48413]}},{"name":"Espotting","category_code":"advertising","number_of_employees":250.0,"founded_year":2000,"description":null,"zip_code":null,"city":null,"state_code":null,"country_code":"USA","location":{"type":"Point","coordinates":[-95.712891,37.09024]}},{"name":"Seedcamp","category_code":"finance","number_of_employees":4.0,"founded_year":2007,"description":"","zip_code":"W1S 2LQ","city":"London","state_code":null,"country_code":"GBR","location":{"type":"Point","coordinates":[-0.1418973,51.5108803]}},{"name":"airG","category_code":"search","number_of_employees":180.0,"founded_year":2000,"description":"","zip_code":"V6E 4E5","city":"Vancouver","state_code":null,"country_code":"CAN","location":{"type":"Point","coordinates":[-75.066111,3.046111]}},{"name":"MocoSpace","category_code":"games_video","number_of_employees":25.0,"founded_year":2005,"description":"","zip_code":"02111","city":"Boston","state_code":"MA","country_code":"USA","location":{"type":"Point","coordinates":[-71.058768,42.350274]}},{"name":"LocaModa","category_code":"advertising","number_of_employees":0.0,"founded_year":2007,"description":"HQ","zip_code":"02142","city":"Cambridge","state_code":"MA","country_code":"USA","location":{"type":"Point","coordinates":[-71.104329,42.358822]}},{"name":"YouBeQB","category_code":"games_video","number_of_employees":8.0,"founded_year":2008,"description":null,"zip_code":null,"city":"Bellevue","state_code":"WA","country_code":"USA","location":{"type":"Point","coordinates":[-122.151158,47.597965]}},{"name":"Adknowledge","category_code":"advertising","number_of_employees":300.0,"founded_year":2004,"description":"World Headquarters","zip_code":"64112","city":"Kansas City","state_code":"MO","country_code":"USA","location":{"type":"Point","coordinates":[-94.597896,39.044694]}},{"name":"Adknowledge","category_code":"advertising","number_of_employees":300.0,"founded_year":2004,"description":"Adknowledge New York","zip_code":"10001","city":"New York","state_code":"NY","country_code":"USA","location":{"type":"Point","coordinates":[-73.992463,40.748901]}},{"name":"Adknowledge","category_code":"advertising","number_of_employees":300.0,"founded_year":2004,"description":"Adknowledge San Francisco","zip_code":"94105","city":"San Francisco","state_code":"CA","country_code":"USA","location":{"type":"Point","coordinates":[-122.401406,37.78866]}},{"name":"Adknowledge","category_code":"advertising","number_of_employees":300.0,"founded_year":2004,"description":"Adknowledge Fort Myers","zip_code":"33907","city":"Fort Myers","state_code":"FL","country_code":"USA","location":{"type":"Point","coordinates":[-81.879069,26.580095]}},{"name":"Adknowledge","category_code":"advertising","number_of_employees":300.0,"founded_year":2004,"description":"Adknowledge Toronto","zip_code":"M5V 2L3","city":"Toronto","state_code":null,"country_code":"CAN","location":{"type":"Point","coordinates":[-79.3953743,43.6474554]}},{"name":"Adknowledge","category_code":"advertising","number_of_employees":300.0,"founded_year":2004,"description":"Adknowledge UK","zip_code":"WC2E 9EZ","city":"Covent Garden, London","state_code":null,"country_code":"GBR","location":{"type":"Point","coordinates":[-0.1229212,51.5114403]}},{"name":"Adknowledge","category_code":"advertising","number_of_employees":300.0,"founded_year":2004,"description":"Adknowledge Germany","zip_code":"","city":"Munich","state_code":null,"country_code":"DEU","location":{"type":"Point","coordinates":[11.5582609,48.1635092]}},{"name":"Adknowledge","category_code":"advertising","number_of_employees":300.0,"founded_year":2004,"description":"Adknowledge France","zip_code":"75011","city":"Paris","state_code":null,"country_code":"FRA","location":{"type":"Point","coordinates":[2.3797825,48.8506065]}},{"name":"Adknowledge","category_code":"advertising","number_of_employees":300.0,"founded_year":2004,"description":"Adknowledge China","zip_code":"200021","city":"Shanghai","state_code":null,"country_code":"CHN","location":{"type":"Point","coordinates":[121.4770384,31.222622]}},{"name":"ChannelAdvisor","category_code":"search","number_of_employees":300.0,"founded_year":2001,"description":null,"zip_code":"27560","city":"Morrisville","state_code":"NC","country_code":"USA","location":{"type":"Point","coordinates":[-78.815635,35.854483]}},{"name":"Yap","category_code":"messaging","number_of_employees":null,"founded_year":2006,"description":"","zip_code":"29708","city":"Fort Mill","state_code":"SC","country_code":"USA","location":{"type":"Point","coordinates":[-80.856178,35.22806]}},{"name":"Minglebox","category_code":"web","number_of_employees":null,"founded_year":2006,"description":null,"zip_code":null,"city":"Bangalore","state_code":null,"country_code":"IND","location":{"type":"Point","coordinates":[77.594376,12.971606]}},{"name":"Tizra","category_code":"enterprise","number_of_employees":null,"founded_year":2006,"description":null,"zip_code":"02906","city":"Providence","state_code":"RI","country_code":"USA","location":{"type":"Point","coordinates":[-71.399771,41.841713]}},{"name":"TestFreaks","category_code":"ecommerce","number_of_employees":null,"founded_year":2006,"description":"Main office","zip_code":"","city":"Stockholm","state_code":null,"country_code":"SWE","location":{"type":"Point","coordinates":[18.0571198,59.3339908]}},{"name":"BlogSigs","category_code":"web","number_of_employees":null,"founded_year":2007,"description":null,"zip_code":null,"city":null,"state_code":null,"country_code":"USA","location":{"type":"Point","coordinates":[-95.712891,37.09024]}},{"name":"BBE","category_code":"advertising","number_of_employees":null,"founded_year":2004,"description":"","zip_code":"10016","city":"New York","state_code":"NY","country_code":"USA","location":{"type":"Point","coordinates":[-73.9874008,40.7445343]}},{"name":"Quattro Wireless","category_code":"advertising","number_of_employees":null,"founded_year":2006,"description":null,"zip_code":"02453","city":"Waltham","state_code":"MA","country_code":"USA","location":{"type":"Point","coordinates":[-71.248472,42.3729]}},{"name":"Fotolog","category_code":"network_hosting","number_of_employees":40.0,"founded_year":2002,"description":null,"zip_code":null,"city":"New York","state_code":"NY","country_code":"USA","location":{"type":"Point","coordinates":[-73.985506,40.757929]}},{"name":"Thumbplay","category_code":"music","number_of_employees":70.0,"founded_year":2004,"description":null,"zip_code":"10012","city":"New York","state_code":"NY","country_code":"USA","location":{"type":"Point","coordinates":[-73.997395,40.725435]}},{"name":"Xfire","category_code":"games_video","number_of_employees":null,"founded_year":2002,"description":"Xfire Headquarters","zip_code":"90401","city":"Santa Monica","state_code":"CA","country_code":"USA","location":{"type":"Point","coordinates":[-118.49863,34.0184659]}},{"name":"SnapTell","category_code":"software","number_of_employees":null,"founded_year":2006,"description":"","zip_code":"94306","city":"Palo Alto","state_code":"CA","country_code":"USA","location":{"type":"Point","coordinates":[-122.128772,37.433414]}},{"name":"Wonga","category_code":"web","number_of_employees":null,"founded_year":2007,"description":"","zip_code":"W1H 2EJ","city":"London","state_code":null,"country_code":"GBR","location":{"type":"Point","coordinates":[-0.1626103,51.5192042]}},{"name":"Marchex","category_code":"mobile","number_of_employees":null,"founded_year":2000,"description":"Corporate Headquarters","zip_code":"98101","city":"Seattle","state_code":"WA","country_code":"USA","location":{"type":"Point","coordinates":[-122.336825,47.611201]}},{"name":"MicroPlace","category_code":"web","number_of_employees":15.0,"founded_year":2007,"description":"","zip_code":"","city":"San Francisco","state_code":"CA","country_code":"USA","location":{"type":"Point","coordinates":[-122.419204,37.775196]}},{"name":"EyeJot","category_code":"web","number_of_employees":5.0,"founded_year":2007,"description":"","zip_code":"98104","city":"Seattle","state_code":"WA","country_code":"USA","location":{"type":"Point","coordinates":[-122.3276962,47.5999337]}},{"name":"Contrastream","category_code":"games_video","number_of_employees":1.0,"founded_year":2007,"description":null,"zip_code":"M2H 2L5","city":"Toronto","state_code":null,"country_code":"CAN","location":{"type":"Point","coordinates":[-79.348037,43.799511]}},{"name":"Spiceworks","category_code":"hardware","number_of_employees":null,"founded_year":2006,"description":"World Headquarters","zip_code":"78730","city":"Austin","state_code":"TX","country_code":"USA","location":{"type":"Point","coordinates":[-97.753739,30.386601]}},{"name":"MyHeritage","category_code":"social","number_of_employees":null,"founded_year":2005,"description":"","zip_code":"","city":"Or Yehuda","state_code":null,"country_code":"ISR","location":{"type":"Point","coordinates":[34.856173,32.029748]}},{"name":"OnForce","category_code":"enterprise","number_of_employees":null,"founded_year":2003,"description":"","zip_code":"02421","city":"Lexington","state_code":"MA","country_code":"USA","location":{"type":"Point","coordinates":[-71.262508,42.47218]}},{"name":"Daylife","category_code":"enterprise","number_of_employees":25.0,"founded_year":2006,"description":null,"zip_code":"10013","city":"New York","state_code":"NY","country_code":"USA","location":{"type":"Point","coordinates":[-73.886452,40.643438]}},{"name":"OMGPOP","category_code":"games_video","number_of_employees":50.0,"founded_year":2006,"description":"","zip_code":"","city":"New York","state_code":"NY","country_code":"USA","location":{"type":"Point","coordinates":[-74.001704,40.723384]}},{"name":"SayNow","category_code":"mobile","number_of_employees":20.0,"founded_year":2005,"description":"Headquarters","zip_code":"94301","city":"Palo Alto","state_code":"CA","country_code":"USA","location":{"type":"Point","coordinates":[-122.143915,37.42746]}},{"name":"Ooyala","category_code":"analytics","number_of_employees":300.0,"founded_year":2007,"description":"Corporate Headquarters","zip_code":"94040","city":"Mountain View","state_code":"CA","country_code":"USA","location":{"type":"Point","coordinates":[-122.084171,37.386665]}},{"name":"Crunchyroll","category_code":"games_video","number_of_employees":50.0,"founded_year":2008,"description":"","zip_code":"94105","city":"San Francisco","state_code":"CA","country_code":"USA","location":{"type":"Point","coordinates":[-122.393229,37.781265]}},{"name":"PixSense","category_code":"mobile","number_of_employees":35.0,"founded_year":2003,"description":"Headquarters","zip_code":"95054","city":"Santa Clara","state_code":"CA","country_code":"USA","location":{"type":"Point","coordinates":[-121.973228,37.387114]}},{"name":"ContactOffice","category_code":"web","number_of_employees":10.0,"founded_year":2000,"description":"","zip_code":"1170","city":"Brussel","state_code":null,"country_code":"BEL","location":{"type":"Point","coordinates":[4.400604,50.796645]}},{"name":"Yugma","category_code":"games_video","number_of_employees":38.0,"founded_year":2003,"description":"YSL Holdings (HQ)","zip_code":"55344","city":"Eden Prairie","state_code":"MN","country_code":"USA","location":{"type":"Point","coordinates":[-93.4094629,44.865243]}},{"name":"Behance","category_code":"web","number_of_employees":30.0,"founded_year":2006,"description":"","zip_code":"10012","city":"New York","state_code":"NY","country_code":"USA","location":{"type":"Point","coordinates":[-74.004592,40.74406]}},{"name":"ThemBid","category_code":"ecommerce","number_of_employees":7.0,"founded_year":2007,"description":null,"zip_code":"91730","city":"Rancho Cucamonga","state_code":"CA","country_code":"USA","location":{"type":"Point","coordinates":[-117.572967,34.099253]}},{"name":"FAROO","category_code":"search","number_of_employees":5.0,"founded_year":2007,"description":"","zip_code":"EC1N 8SS","city":"London","state_code":null,"country_code":"GBR","location":{"type":"Point","coordinates":[-0.1065551,51.5195795]}},{"name":"imeem","category_code":"music","number_of_employees":55.0,"founded_year":2003,"description":"","zip_code":"94107","city":"San Francisco","state_code":"CA","country_code":"USA","location":{"type":"Point","coordinates":[-122.391236,37.779624]}},{"name":"hulu","category_code":"games_video","number_of_employees":153.0,"founded_year":2007,"description":null,"zip_code":"90064","city":"Los Angeles","state_code":"CA","country_code":"USA","location":{"type":"Point","coordinates":[-118.456806,34.031276]}},{"name":"AdMob","category_code":"advertising","number_of_employees":null,"founded_year":2006,"description":"Google, Inc","zip_code":"94043","city":"Mountain View","state_code":"CA","country_code":"USA","location":{"type":"Point","coordinates":[-122.324621,37.563585]}},{"name":"OrganizedWisdom","category_code":"other","number_of_employees":18.0,"founded_year":2007,"description":null,"zip_code":"10023","city":"New York","state_code":"NY","country_code":"USA","location":{"type":"Point","coordinates":[-73.981709,40.775537]}},{"name":"Attributor","category_code":"software","number_of_employees":0.0,"founded_year":2005,"description":"","zip_code":"94401","city":"San Mateo","state_code":"CA","country_code":"USA","location":{"type":"Point","coordinates":[-122.228595,37.453687]}},{"name":"LineUpNewYork","category_code":"web","number_of_employees":0.0,"founded_year":2007,"description":null,"zip_code":"10018","city":"New York","state_code":"NY","country_code":"USA","location":{"type":"Point","coordinates":[-73.986771,40.753202]}},{"name":"MediaPops","category_code":"games_video","number_of_employees":0.0,"founded_year":2007,"description":null,"zip_code":"98101","city":"Seattle","state_code":"WA","country_code":"USA","location":{"type":"Point","coordinates":[-122.333523,47.611012]}},{"name":"BeFunky","category_code":"photo_video","number_of_employees":6.0,"founded_year":2007,"description":null,"zip_code":null,"city":"San Francisco","state_code":"CA","country_code":"USA","location":{"type":"Point","coordinates":[-122.4194155,37.7749295]}},{"name":"Mixx","category_code":"web","number_of_employees":11.0,"founded_year":2007,"description":"","zip_code":"22102","city":"McLean","state_code":"VA","country_code":"USA","location":{"type":"Point","coordinates":[-79.420926,38.003376]}},{"name":"Mozy","category_code":"public_relations","number_of_employees":26.0,"founded_year":2005,"description":"Mozy, Inc.","zip_code":"84062","city":"Pleasant Grove","state_code":"UT","country_code":"USA","location":{"type":"Point","coordinates":[-111.777531,40.357978]}},{"name":"TripIt","category_code":"travel","number_of_employees":63.0,"founded_year":2006,"description":"","zip_code":"94110","city":"San Francisco","state_code":"CA","country_code":"USA","location":{"type":"Point","coordinates":[-122.402021,37.764169]}},{"name":"Kerpoof","category_code":"web","number_of_employees":0.0,"founded_year":2006,"description":"","zip_code":"80302-4839","city":"Boulder","state_code":"CO","country_code":"USA","location":{"type":"Point","coordinates":[-105.38018,40.048078]}},{"name":"GENWI","category_code":"mobile","number_of_employees":25.0,"founded_year":2010,"description":"","zip_code":"94022","city":"Los Altos","state_code":"CA","country_code":"USA","location":{"type":"Point","coordinates":[-111.9035,33.8171]}},{"name":"PubMatic","category_code":"advertising","number_of_employees":380.0,"founded_year":2006,"description":"HQ","zip_code":"94063","city":"Redwood City","state_code":"CA","country_code":"USA","location":{"type":"Point","coordinates":[-122.156579,37.446668]}},{"name":"app2you","category_code":"web","number_of_employees":4.0,"founded_year":2006,"description":null,"zip_code":"92037","city":"La Jolla","state_code":"CA","country_code":"USA","location":{"type":"Point","coordinates":[-117.274609,32.847521]}},{"name":"HylioSoft","category_code":"web","number_of_employees":3.0,"founded_year":2004,"description":null,"zip_code":"57000","city":"METZ","state_code":null,"country_code":"FRA","location":{"type":"Point","coordinates":[6.182658,49.1004]}},{"name":"YourStreet","category_code":"web","number_of_employees":6.0,"founded_year":2006,"description":null,"zip_code":"94109","city":"San Francisco","state_code":"CA","country_code":"USA","location":{"type":"Point","coordinates":[-122.421341,37.793742]}},{"name":"Vidoop","category_code":"software","number_of_employees":30.0,"founded_year":2006,"description":"Main Office","zip_code":"97209","city":"Portland","state_code":"OR","country_code":"USA","location":{"type":"Point","coordinates":[-122.675448,45.5241278]}},{"name":"Zerofootprint","category_code":"software","number_of_employees":null,"founded_year":2005,"description":"Zerofootprint Canada","zip_code":"M5T 2C8","city":"Toronto","state_code":null,"country_code":"CAN","location":{"type":"Point","coordinates":[-79.396805,43.6501051]}},{"name":"PrepMe","category_code":"other","number_of_employees":null,"founded_year":2001,"description":"Chicago Headquarters","zip_code":"60611","city":"Chicago","state_code":"IL","country_code":"USA","location":{"type":"Point","coordinates":[-87.621982,41.892774]}},{"name":"SmartHippo","category_code":"ecommerce","number_of_employees":10.0,"founded_year":2005,"description":null,"zip_code":"H2X 2A1","city":"Montreal","state_code":null,"country_code":"CAN","location":{"type":"Point","coordinates":[-73.566634,45.506643]}},{"name":"GlobalMotion","category_code":"travel","number_of_employees":0.0,"founded_year":2006,"description":null,"zip_code":"94301","city":"Palo Alto","state_code":"CA","country_code":"USA","location":{"type":"Point","coordinates":[-122.161247,37.445714]}},{"name":"Snoozester","category_code":"mobile","number_of_employees":0.0,"founded_year":2005,"description":null,"zip_code":"20852","city":"Rockville","state_code":"MD","country_code":"USA","location":{"type":"Point","coordinates":[-77.123153,39.052614]}},{"name":"FlowPlay","category_code":"games_video","number_of_employees":30.0,"founded_year":2006,"description":"","zip_code":"98104","city":"Seattle","state_code":"WA","country_code":"USA","location":{"type":"Point","coordinates":[-122.335943,47.6015315]}},{"name":"Feedjit","category_code":"web","number_of_employees":2.0,"founded_year":2007,"description":"","zip_code":"98075-7423","city":"Sammamish","state_code":"WA","country_code":"USA","location":{"type":"Point","coordinates":[-122.084356,47.585114]}},{"name":"Trivop","category_code":"web","number_of_employees":null,"founded_year":2007,"description":"","zip_code":"75006","city":"Paris","state_code":null,"country_code":"FRA","location":{"type":"Point","coordinates":[2.3365754,48.8558532]}},{"name":"Balihoo","category_code":"advertising","number_of_employees":null,"founded_year":2004,"description":"","zip_code":"83702","city":"Boise","state_code":"ID","country_code":"USA","location":{"type":"Point","coordinates":[-116.205637,43.61295]}},{"name":"IMSafer","category_code":"web","number_of_employees":5.0,"founded_year":2006,"description":null,"zip_code":"77382","city":"The Woodlands","state_code":"TX","country_code":"USA","location":{"type":"Point","coordinates":[-95.536,30.182107]}},{"name":"Viewpoints","category_code":"web","number_of_employees":15.0,"founded_year":2006,"description":"","zip_code":"60610","city":"Chicago","state_code":"IL","country_code":"USA","location":{"type":"Point","coordinates":[-87.63406,41.890376]}},{"name":"Smartsheet","category_code":"enterprise","number_of_employees":null,"founded_year":2005,"description":"","zip_code":"98004","city":"Bellevue","state_code":"WA","country_code":"USA","location":{"type":"Point","coordinates":[-122.20052,47.617842]}},{"name":"Avvo","category_code":"legal","number_of_employees":null,"founded_year":2007,"description":"Headquarters","zip_code":"98104","city":"Seattle","state_code":"WA","country_code":"USA","location":{"type":"Point","coordinates":[-122.3396627,47.6104101]}},{"name":"ThisNext","category_code":"social","number_of_employees":0.0,"founded_year":2005,"description":null,"zip_code":"90401","city":"Santa Monica","state_code":"CA","country_code":"USA","location":{"type":"Point","coordinates":[-118.493592,34.01533]}},{"name":"OneRiot","category_code":"advertising","number_of_employees":32.0,"founded_year":2006,"description":"Headquarters","zip_code":"80302","city":"Boulder","state_code":"CO","country_code":"USA","location":{"type":"Point","coordinates":[-105.28131,40.01621]}},{"name":"ChessPark","category_code":"games_video","number_of_employees":null,"founded_year":2007,"description":null,"zip_code":null,"city":"West Palm Beach","state_code":"CA","country_code":"USA","location":{"type":"Point","coordinates":[-83.913153,43.67084]}},{"name":"Tumri","category_code":"advertising","number_of_employees":null,"founded_year":2004,"description":null,"zip_code":null,"city":null,"state_code":null,"country_code":"USA","location":{"type":"Point","coordinates":[-95.712891,37.09024]}},{"name":"UpDown","category_code":"web","number_of_employees":5.0,"founded_year":2007,"description":null,"zip_code":"","city":"Cambridge","state_code":"MA","country_code":"USA","location":{"type":"Point","coordinates":[-71.118487,42.375392]}},{"name":"Clickable","category_code":"advertising","number_of_employees":160.0,"founded_year":2006,"description":"New York Office","zip_code":"10010","city":"New York","state_code":"NY","country_code":"USA","location":{"type":"Point","coordinates":[-73.9912208,40.7413559]}},{"name":"Webjam","category_code":"enterprise","number_of_employees":18.0,"founded_year":2006,"description":"Webjam Mark2 Ltd","zip_code":"KT6 7EL","city":"London","state_code":null,"country_code":"GBR","location":{"type":"Point","coordinates":[-0.136174,51.519819]}},{"name":"Boomi","category_code":"enterprise","number_of_employees":35.0,"founded_year":2000,"description":"Headquarters","zip_code":"19312","city":"Berwyn","state_code":"PA","country_code":"USA","location":{"type":"Point","coordinates":[-75.457492,40.063476]}},{"name":"mig33","category_code":"games_video","number_of_employees":100.0,"founded_year":2005,"description":"mig33 Headquarters","zip_code":"179098","city":"Singapore","state_code":null,"country_code":"SGP","location":{"type":"Point","coordinates":[-122.343679,37.580304]}},{"name":"Animoto","category_code":"music","number_of_employees":60.0,"founded_year":2006,"description":"Headquarters","zip_code":"","city":"New York","state_code":"NY","country_code":"USA","location":{"type":"Point","coordinates":[-74.000195,40.72948]}},{"name":"Swamble","category_code":"web","number_of_employees":0.0,"founded_year":2007,"description":null,"zip_code":"89120","city":null,"state_code":null,"country_code":"USA","location":{"type":"Point","coordinates":[-115.089514,36.076705]}},{"name":"Data360","category_code":"web","number_of_employees":0.0,"founded_year":2006,"description":null,"zip_code":"94111","city":"San Francisco","state_code":"CA","country_code":"USA","location":{"type":"Point","coordinates":[-122.306571,37.799549]}},{"name":"Houseglue","category_code":"web","number_of_employees":5.0,"founded_year":2007,"description":null,"zip_code":"95030","city":"Los Gatos","state_code":"CA","country_code":"USA","location":{"type":"Point","coordinates":[-121.983814,37.222604]}},{"name":"Pakt","category_code":"web","number_of_employees":0.0,"founded_year":2006,"description":null,"zip_code":"90293","city":null,"state_code":"CA","country_code":"USA","location":{"type":"Point","coordinates":[-118.441219,33.945553]}},{"name":"SpeedDate","category_code":"web","number_of_employees":0.0,"founded_year":2007,"description":"","zip_code":"94404","city":"San Mateo","state_code":"CA","country_code":"USA","location":{"type":"Point","coordinates":[-122.285714,37.557637]}},{"name":"Realius","category_code":"games_video","number_of_employees":3.0,"founded_year":2006,"description":null,"zip_code":"94707","city":"Berkeley","state_code":"CA","country_code":"USA","location":{"type":"Point","coordinates":[-122.26999,37.887864]}},{"name":"GamerDNA","category_code":"web","number_of_employees":13.0,"founded_year":2006,"description":null,"zip_code":"","city":"Cambridge","state_code":"MA","country_code":"USA","location":{"type":"Point","coordinates":[-71.118487,42.375392]}},{"name":"Metaplace","category_code":"games_video","number_of_employees":12.0,"founded_year":2006,"description":"hi","zip_code":"90275","city":"Solana Beach","state_code":"CA","country_code":"USA","location":{"type":"Point","coordinates":[-117.077311,33.020832]}},{"name":"Spoke","category_code":"software","number_of_employees":8.0,"founded_year":2002,"description":null,"zip_code":"94402","city":"San Mateo","state_code":"CA","country_code":"USA","location":{"type":"Point","coordinates":[-122.302262,37.559287]}},{"name":"Xobni","category_code":"software","number_of_employees":0.0,"founded_year":2006,"description":"HQ","zip_code":"94107","city":"San Francisco","state_code":"CA","country_code":"USA","location":{"type":"Point","coordinates":[-122.404052,37.789634]}},{"name":"Tripwiser","category_code":"web","number_of_employees":0.0,"founded_year":2006,"description":"HQ","zip_code":"94085","city":"Sunnyvale","state_code":"CA","country_code":"USA","location":{"type":"Point","coordinates":[-122.012475,37.384239]}},{"name":"Wirenode","category_code":"mobile","number_of_employees":0.0,"founded_year":2005,"description":null,"zip_code":"10600","city":"Prague 10","state_code":null,"country_code":"CZE","location":{"type":"Point","coordinates":[14.489674,50.055049]}},{"name":"Syntraxis","category_code":"web","number_of_employees":6.0,"founded_year":2006,"description":null,"zip_code":"75062","city":"Irving","state_code":"TX","country_code":"USA","location":{"type":"Point","coordinates":[-96.9403,32.860831]}},{"name":"Styky","category_code":"mobile","number_of_employees":3.0,"founded_year":2003,"description":null,"zip_code":"19104","city":"Philadelphia","state_code":"PA","country_code":"USA","location":{"type":"Point","coordinates":[-75.194657,39.956259]}},{"name":"Empressr","category_code":"public_relations","number_of_employees":35.0,"founded_year":2006,"description":null,"zip_code":"10011","city":"New York","state_code":"NY","country_code":"USA","location":{"type":"Point","coordinates":[-73.993127,40.740337]}},{"name":"GroupSwim","category_code":"software","number_of_employees":9.0,"founded_year":2005,"description":null,"zip_code":"94107","city":"San Francisco","state_code":"CA","country_code":"USA","location":{"type":"Point","coordinates":[-122.393041,37.779558]}},{"name":"Diigo","category_code":"web","number_of_employees":null,"founded_year":2006,"description":null,"zip_code":null,"city":"Reno","state_code":"NV","country_code":"USA","location":{"type":"Point","coordinates":[-119.81439,39.530368]}},{"name":"EkkoTV","category_code":"games_video","number_of_employees":0.0,"founded_year":2006,"description":"Facebook.com\/Phulwariya","zip_code":"","city":"Sunnyvale","state_code":"CA","country_code":"USA","location":{"type":"Point","coordinates":[-122.036849,37.369195]}},{"name":"Jiglu","category_code":"software","number_of_employees":3.0,"founded_year":2003,"description":"","zip_code":"W1T 2NS","city":"London","state_code":null,"country_code":"GBR","location":{"type":"Point","coordinates":[-0.149522,51.54236]}},{"name":"Ponoko","category_code":"ecommerce","number_of_employees":9.0,"founded_year":2007,"description":"US Office","zip_code":"94608","city":"Oakland","state_code":"CA","country_code":"USA","location":{"type":"Point","coordinates":[-122.2966496,37.8136086]}},{"name":"Type-Any-Circle-Of-Six","category_code":"web","number_of_employees":0.0,"founded_year":2006,"description":null,"zip_code":"3204","city":"","state_code":null,"country_code":"NZL","location":{"type":"Point","coordinates":[175.2604,-37.797384]}},{"name":"SuTree","category_code":"games_video","number_of_employees":5.0,"founded_year":2006,"description":null,"zip_code":"","city":"Tel Aviv","state_code":null,"country_code":"ISR","location":{"type":"Point","coordinates":[34.7595,32.0554]}},{"name":"Sermo","category_code":"health","number_of_employees":null,"founded_year":2006,"description":null,"zip_code":"02142","city":"Cambridge","state_code":"MA","country_code":"USA","location":{"type":"Point","coordinates":[-71.078978,42.364367]}},{"name":"itsmylife","category_code":"web","number_of_employees":2.0,"founded_year":2003,"description":null,"zip_code":"32901","city":"Melbourne","state_code":"FL","country_code":"USA","location":{"type":"Point","coordinates":[-80.632606,28.074742]}},{"name":"Stixy","category_code":"web","number_of_employees":0.0,"founded_year":2006,"description":null,"zip_code":null,"city":"Mill Valley","state_code":"CA","country_code":"USA","location":{"type":"Point","coordinates":[-122.542491,37.904468]}},{"name":"Dopetracks","category_code":"web","number_of_employees":4.0,"founded_year":2007,"description":"","zip_code":"","city":"Van Nuys","state_code":"CA","country_code":"USA","location":{"type":"Point","coordinates":[-118.474261,34.210785]}},{"name":"Worklight","category_code":"mobile","number_of_employees":30.0,"founded_year":2006,"description":"","zip_code":"10001","city":"New York","state_code":"NY","country_code":"USA","location":{"type":"Point","coordinates":[-73.976348,40.756799]}},{"name":"SueEasy","category_code":"web","number_of_employees":6.0,"founded_year":2007,"description":null,"zip_code":"94040","city":"Mountain View","state_code":"CA","country_code":"USA","location":{"type":"Point","coordinates":[-122.104099,37.401355]}},{"name":"RingCentral","category_code":"messaging","number_of_employees":null,"founded_year":2003,"description":"Headquarters","zip_code":"94404","city":"San Mateo","state_code":"CA","country_code":"USA","location":{"type":"Point","coordinates":[-122.285588,37.560155]}},{"name":"Moz","category_code":"search","number_of_employees":130.0,"founded_year":2002,"description":"","zip_code":"98101","city":"Seattle","state_code":"WA","country_code":"USA","location":{"type":"Point","coordinates":[-122.347533,47.620716]}},{"name":"Vestopia","category_code":"web","number_of_employees":null,"founded_year":2007,"description":null,"zip_code":"94104","city":"San Francisco","state_code":"CA","country_code":"USA","location":{"type":"Point","coordinates":[-122.403486,37.792262]}},{"name":"Zillow","category_code":"real_estate","number_of_employees":600.0,"founded_year":2005,"description":"World Headquarters","zip_code":"98101","city":"Seattle","state_code":"WA","country_code":"USA","location":{"type":"Point","coordinates":[-122.3293984,47.6011125]}},{"name":"Mobivox","category_code":"mobile","number_of_employees":null,"founded_year":2007,"description":null,"zip_code":null,"city":"Montreal","state_code":null,"country_code":"CAN","location":{"type":"Point","coordinates":[-73.560084,45.500277]}},{"name":"3Jam","category_code":"mobile","number_of_employees":null,"founded_year":2005,"description":"","zip_code":"94103-5060","city":"San Francisco","state_code":"CA","country_code":"USA","location":{"type":"Point","coordinates":[-122.4044034,37.765125]}},{"name":"DocuSign","category_code":"software","number_of_employees":null,"founded_year":2003,"description":"","zip_code":"98101","city":"Seattle","state_code":"WA","country_code":"USA","location":{"type":"Point","coordinates":[-122.335668,47.603015]}},{"name":"PlaySpan","category_code":"games_video","number_of_employees":null,"founded_year":2006,"description":"HQ","zip_code":"95054","city":"Santa Clara","state_code":"CA","country_code":"USA","location":{"type":"Point","coordinates":[-121.961396,37.396312]}},{"name":"Wikinvest","category_code":"web","number_of_employees":null,"founded_year":2006,"description":"","zip_code":"94103-2812","city":"San Francisco","state_code":"CA","country_code":"USA","location":{"type":"Point","coordinates":[-122.419204,37.775196]}},{"name":"Zimbra","category_code":"enterprise","number_of_employees":200.0,"founded_year":2003,"description":"","zip_code":"94304","city":"Palo Alto","state_code":"CA","country_code":"USA","location":{"type":"Point","coordinates":[-122.285714,37.557637]}},{"name":"FriendFeed","category_code":"web","number_of_employees":null,"founded_year":2007,"description":"","zip_code":"94041","city":"Mountain View","state_code":"CA","country_code":"USA","location":{"type":"Point","coordinates":[-122.072612,37.39248]}},{"name":"earthmine","category_code":"enterprise","number_of_employees":30.0,"founded_year":2006,"description":"","zip_code":"94710","city":"Berkeley","state_code":"CA","country_code":"USA","location":{"type":"Point","coordinates":[-122.298168,37.862209]}},{"name":"Gazelle","category_code":"ecommerce","number_of_employees":null,"founded_year":2006,"description":"Headquarters","zip_code":"","city":"Boston","state_code":"MA","country_code":"USA","location":{"type":"Point","coordinates":[-71.140762,42.354022]}},{"name":"LocoGopher","category_code":"web","number_of_employees":0.0,"founded_year":2007,"description":null,"zip_code":"97070","city":null,"state_code":"OR","country_code":"USA","location":{"type":"Point","coordinates":[-122.77941,45.3085]}},{"name":"Fon","category_code":"mobile","number_of_employees":100.0,"founded_year":2006,"description":"","zip_code":"28050","city":"Madrid","state_code":null,"country_code":"ESP","location":{"type":"Point","coordinates":[-3.632687,40.530724]}},{"name":"Zolve","category_code":"network_hosting","number_of_employees":null,"founded_year":2007,"description":null,"zip_code":null,"city":"Baghdad","state_code":null,"country_code":"USA","location":{"type":"Point","coordinates":[-82.193515,28.208654]}},{"name":"RecipeMatcher","category_code":"web","number_of_employees":2.0,"founded_year":2007,"description":null,"zip_code":"92122","city":"","state_code":"CA","country_code":"USA","location":{"type":"Point","coordinates":[-117.20717,32.856744]}},{"name":"Whiskey Media","category_code":"web","number_of_employees":12.0,"founded_year":2007,"description":"HQ","zip_code":"94111","city":"San Francisco","state_code":"CA","country_code":"USA","location":{"type":"Point","coordinates":[-122.495222,37.856331]}},